{"version": 0.6, "generator": "Overpass API 0.7.62.8 e802775f", "osm3s": {"timestamp_osm_base": "2025-12-09T04:59:00Z", "copyright": "The data included in this document is from www.openstreetmap.org. The data is made available under ODbL."}, "elements": [{"type": "node", "id": 501431872, "lat": 7.631, "lon": 6.2124, "tags": {"GNS:dsg_code": "PPL", "GNS:dsg_string": "populated place", "GNS:id": "-2030245", "alt_name": "Usungwe", "fixme": "no population estimate available, defaulted to village", "is_in:country": "Nigeria", "name": "Osungwe", "place": "village", "source": "GNS"}}, {"type": "node", "id": 501485324, "lat": 7.6284, "lon": 6.1981, "tags": {"GNS:dsg_code": "PPL", "GNS:dsg_string": "populated place", "GNS:id": "-2022502", "alt_name": "Okaitu", "fixme": "no population estimate available, defaulted to village", "is_in:country": "Nigeria", "name": "Okaito", "place": "village", "source": "GNS"}}, {"type": "node", "id": 501496792, "lat": 7.6951, "lon": 6.1416, "tags": {"GNS:dsg_code": "PPL", "GNS:dsg_string": "populated place", "GNS:id": "-2022327", "alt_name": "Ohaketi", "fixme": "no population estimate available, defaulted to village", "is_in:country": "Nigeria", "name": "Ohakite", "place": "village", "source": "GNS"}}, {"type": "node", "id": 8851563703, "lat": 7.6367392, "lon": 6.3291482, "tags": {"name": "Abobo", "place": "town"}}, {"type": "node", "id": 8851563704, "lat": 7.6193953, "lon": 6.2782184, "tags": {"name": "Camp 2", "place": "village"}}, {"type": "node", "id": 8851563712, "lat": 7.6307949, "lon": 6.2105946, "tags": {"name": "Usunwe", "place": "village"}}]}