{"version": 0.6, "generator": "Overpass API 0.7.62.8 e802775f", "osm3s": {"timestamp_osm_base": "2025-12-09T04:58:00Z", "copyright": "The data included in this document is from www.openstreetmap.org. The data is made available under ODbL."}, "elements": [{"type": "node", "id": 501332352, "lat": 6.946, "lon": 7.2386, "tags": {"GNS:dsg_code": "PPL", "GNS:dsg_string": "populated place", "GNS:id": "-2029028", "alt_name": "Igwaka", "fixme": "no population estimate available, defaulted to village", "is_in:country": "Nigeria", "name": "Ugwaka", "place": "village", "source": "GNS"}}, {"type": "node", "id": 501350793, "lat": 7.166667, "lon": 7.016667, "tags": {"GNS:dsg_code": "PPL", "GNS:dsg_string": "populated place", "GNS:id": "-2021501", "alt_name": "Abedamegu", "fixme": "no population estimate available, defaulted to village", "is_in:country": "Nigeria", "name": "Obedamagu", "place": "village", "source": "GNS"}}, {"type": "node", "id": 501371322, "lat": 7.083333, "lon": 7.2, "tags": {"GNS:dsg_code": "PPL", "GNS:dsg_string": "populated place", "GNS:id": "-2021621", "alt_name": "Ogbolimi", "fixme": "no population estimate available, defaulted to village", "is_in:country": "Nigeria", "name": "Obolimi", "place": "village", "source": "GNS"}}, {"type": "node", "id": 501394891, "lat": 6.9766085, "lon": 7.162683, "tags": {"GNS:dsg_code": "PPL", "GNS:dsg_string": "populated place", "GNS:id": "-1997441", "is_in:country": "Nigeria", "name": "Odolu", "place": "town", "source": "GNS"}}, {"type": "node", "id": 501432124, "lat": 7.015, "lon": 7.2981, "tags": {"GNS:dsg_code": "PPL", "GNS:dsg_string": "populated place", "GNS:id": "-1998847", "alt_name": "Akpaniya", "fixme": "no population estimate available, defaulted to village", "is_in:country": "Nigeria", "name": "Akpanya", "place": "village", "source": "GNS"}}, {"type": "node", "id": 501432182, "lat": 7.1070879, "lon": 6.8139181, "tags": {"GNS:dsg_code": "PPL", "GNS:dsg_string": "populated place", "GNS:id": "-2022066", "alt_name": "Agbobo", "fixme": "no population estimate available, defaulted to village", "is_in:country": "Nigeria", "name": "Ogbogbo", "place": "town", "source": "GNS"}}, {"type": "node", "id": 501432258, "lat": 7.1711, "lon": 6.8265, "tags": {"GNS:dsg_code": "PPL", "GNS:dsg_string": "populated place", "GNS:id": "-1998289", "fixme": "no population estimate available, defaulted to village", "is_in:country": "Nigeria", "name": "Ajaka", "place": "village", "source": "GNS"}}, {"type": "node", "id": 501439882, "lat": 7.1, "lon": 7.066667, "tags": {"GNS:dsg_code": "PPL", "GNS:dsg_string": "populated place", "GNS:id": "-2022733", "alt_name": "Okoketti", "fixme": "no population estimate available, defaulted to village", "is_in:country": "Nigeria", "name": "Okokete", "place": "village", "source": "GNS"}}, {"type": "node", "id": 501445880, "lat": 7.033333, "lon": 7.283333, "tags": {"GNS:dsg_code": "PPL", "GNS:dsg_string": "populated place", "GNS:id": "-1998714", "alt_name": "Akynia", "fixme": "no population estimate available, defaulted to village", "is_in:country": "Nigeria", "name": "Akinia", "place": "village", "source": "GNS"}}, {"type": "node", "id": 501449210, "lat": 7.216667, "lon": 7.1, "tags": {"GNS:dsg_code": "PPL", "GNS:dsg_string": "populated place", "GNS:id": "-1998888", "alt_name": "Akpo", "fixme": "no population estimate available, defaulted to village", "is_in:country": "Nigeria", "name": "Akpopo", "place": "village", "source": "GNS"}}, {"type": "node", "id": 501459371, "lat": 7.066667, "lon": 7.066667, "tags": {"GNS:dsg_code": "PPL", "GNS:dsg_string": "populated place", "GNS:id": "-1998809", "alt_name": "Okopu", "fixme": "no population estimate available, defaulted to village", "is_in:country": "Nigeria", "name": "Akopo", "place": "village", "source": "GNS"}}, {"type": "node", "id": 501465231, "lat": 7.0927, "lon": 6.8742, "tags": {"GNS:dsg_code": "PPL", "GNS:dsg_string": "populated place", "GNS:id": "-2021969", "alt_name": "Oforochi", "fixme": "no population estimate available, defaulted to village", "is_in:country": "Nigeria", "name": "Oforachi", "place": "village", "source": "GNS"}}, {"type": "node", "id": 501471658, "lat": 7.033333, "lon": 7.05, "tags": {"GNS:dsg_code": "PPL", "GNS:dsg_string": "populated place", "GNS:id": "-1998483", "alt_name": "Agitata", "fixme": "no population estimate available, defaulted to village", "is_in:country": "Nigeria", "name": "Ajitata", "place": "village", "source": "GNS"}}, {"type": "node", "id": 501485708, "lat": 7.0424, "lon": 6.7372, "tags": {"GNS:dsg_code": "PPL", "GNS:dsg_string": "populated place", "GNS:id": "-2022423", "alt_name": "Ogigala", "fixme": "no population estimate available, defaulted to village", "is_in:country": "Nigeria", "name": "Ojigagala", "place": "village", "source": "GNS"}}, {"type": "node", "id": 501493225, "lat": 7.033333, "lon": 7.116667, "tags": {"GNS:dsg_code": "PPL", "GNS:dsg_string": "populated place", "GNS:id": "-1997489", "alt_name": "Afogba", "fixme": "no population estimate available, defaulted to village", "is_in:country": "Nigeria", "name": "Afagba", "place": "village", "source": "GNS"}}, {"type": "node", "id": 501494775, "lat": 7.233333, "lon": 7.15, "tags": {"GNS:dsg_code": "PPL", "GNS:dsg_string": "populated place", "GNS:id": "-1999448", "alt_name": "Alakura", "fixme": "no population estimate available, defaulted to village", "is_in:country": "Nigeria", "name": "Alokura", "place": "village", "source": "GNS"}}, {"type": "node", "id": 501494953, "lat": 7.116667, "lon": 7.216667, "tags": {"GNS:dsg_code": "PPL", "GNS:dsg_string": "populated place", "GNS:id": "-2010577", "alt_name": "Ebotchi", "fixme": "no population estimate available, defaulted to village", "is_in:country": "Nigeria", "name": "Ibochi", "place": "village", "source": "GNS"}}, {"type": "node", "id": 501497277, "lat": 7.0435898, "lon": 7.0181099, "tags": {"GNS:dsg_code": "PPL", "GNS:dsg_string": "populated place", "GNS:id": "-2005844", "alt_name": "Agobada", "is_in:country": "Nigeria", "name": "Egabada", "place": "village", "source": "GNS"}}, {"type": "node", "id": 501498901, "lat": 7.15, "lon": 7.266667, "tags": {"GNS:dsg_code": "PPL", "GNS:dsg_string": "populated place", "GNS:id": "-2022090", "alt_name": "Ogonitsoa", "fixme": "no population estimate available, defaulted to village", "is_in:country": "Nigeria", "name": "Ogbonicha", "place": "village", "source": "GNS"}}, {"type": "node", "id": 501522546, "lat": 7.249065, "lon": 6.7866224, "tags": {"GNS:dsg_code": "PPL", "GNS:dsg_string": "populated place", "GNS:id": "-2022161", "name": "Agagba", "place": "hamlet", "source": "GNS"}}, {"type": "node", "id": 501525311, "lat": 7.116667, "lon": 7.066667, "tags": {"GNS:dsg_code": "PPL", "GNS:dsg_string": "populated place", "GNS:id": "-1999438", "alt_name": "Alaude;Aloude", "fixme": "no population estimate available, defaulted to village", "is_in:country": "Nigeria", "name": "Alode", "place": "village", "source": "GNS"}}, {"type": "node", "id": 501528660, "lat": 7.083333, "lon": 7.333333, "tags": {"GNS:dsg_code": "PPL", "GNS:dsg_string": "populated place", "GNS:id": "-2028949", "alt_name": "Ogbobo", "fixme": "no population estimate available, defaulted to village", "is_in:country": "Nigeria", "name": "Ugbobo", "place": "village", "source": "GNS"}}]}