{"version": 0.6, "generator": "Overpass API 0.7.62.8 e802775f", "osm3s": {"timestamp_osm_base": "2025-12-09T04:58:00Z", "copyright": "The data included in this document is from www.openstreetmap.org. The data is made available under ODbL."}, "elements": [{"type": "node", "id": 501416920, "lat": 8.166667, "lon": 5.9, "tags": {"GNS:dsg_code": "PPL", "GNS:dsg_string": "populated place", "GNS:id": "-1999803", "alt_name": "Amoru", "fixme": "no population estimate available, defaulted to village", "is_in:country": "Nigeria", "name": "Amuro", "place": "village", "source": "GNS"}}, {"type": "node", "id": 501441610, "lat": 8.166667, "lon": 6.033333, "tags": {"GNS:dsg_code": "PPL", "GNS:dsg_string": "populated place", "GNS:id": "-2027260", "alt_name": "Taketi;Takete Ide;Takete", "fixme": "no population estimate available, defaulted to village", "is_in:country": "Nigeria", "name": "Takete Ide", "place": "village", "source": "GNS"}}, {"type": "node", "id": 501442103, "lat": 8.166667, "lon": 5.95, "tags": {"GNS:dsg_code": "PPL", "GNS:dsg_string": "populated place", "GNS:id": "-2024121", "alt_name": "Okekere", "fixme": "no population estimate available, defaulted to village", "is_in:country": "Nigeria", "name": "Orokere", "place": "village", "source": "GNS"}}, {"type": "node", "id": 501446619, "lat": 8.183333, "lon": 5.883333, "tags": {"GNS:dsg_code": "PPL", "GNS:dsg_string": "populated place", "GNS:id": "-2011353", "fixme": "no population estimate available, defaulted to village", "is_in:country": "Nigeria", "name": "Ijagbe", "place": "village", "source": "GNS", "wikidata": "Q25043488"}}, {"type": "node", "id": 501499147, "lat": 8.15, "lon": 5.783333, "tags": {"GNS:dsg_code": "PPL", "GNS:dsg_string": "populated place", "GNS:id": "-2027259", "alt_name": "Takate", "fixme": "no population estimate available, defaulted to village", "is_in:country": "Nigeria", "name": "Takete", "place": "village", "source": "GNS"}}, {"type": "node", "id": 501517366, "lat": 8.233333, "lon": 5.85, "tags": {"GNS:dsg_code": "PPL", "GNS:dsg_string": "populated place", "GNS:id": "-2011455", "alt_name": "Ijuwa", "fixme": "no population estimate available, defaulted to village", "is_in:country": "Nigeria", "name": "Ijowa", "place": "village", "source": "GNS"}}, {"type": "node", "id": 501525618, "lat": 8.1, "lon": 5.9, "tags": {"GNS:dsg_code": "PPL", "GNS:dsg_string": "populated place", "GNS:id": "-2019885", "fixme": "no population estimate available, defaulted to village", "is_in:country": "Nigeria", "name": "Mopa", "place": "village", "source": "GNS", "wikidata": "Q15043614"}}, {"type": "node", "id": 501526784, "lat": 8.016667, "lon": 5.833333, "tags": {"GNS:dsg_code": "PPL", "GNS:dsg_string": "populated place", "GNS:id": "-2012032", "alt_name": "Lai", "fixme": "no population estimate available, defaulted to village", "is_in:country": "Nigeria", "name": "Ilai", "place": "village", "source": "GNS"}}]}