{"version": 0.6, "generator": "Overpass API 0.7.62.8 e802775f", "osm3s": {"timestamp_osm_base": "2025-12-09T04:58:00Z", "copyright": "The data included in this document is from www.openstreetmap.org. The data is made available under ODbL."}, "elements": [{"type": "node", "id": 501465239, "lat": 7.8965, "lon": 6.2057, "tags": {"GNS:dsg_code": "PPL", "GNS:dsg_string": "populated place", "GNS:id": "-2021799", "alt_name": "Odoape", "fixme": "no population estimate available, defaulted to village", "is_in:country": "Nigeria", "name": "Oduape", "place": "village", "source": "GNS"}}, {"type": "node", "id": 501489624, "lat": 8.066667, "lon": 6.066667, "tags": {"GNS:dsg_code": "PPL", "GNS:dsg_string": "populated place", "GNS:id": "-2010866", "alt_name": "Doyi", "fixme": "no population estimate available, defaulted to village", "is_in:country": "Nigeria", "name": "Idoyi", "place": "village", "source": "GNS"}}, {"type": "node", "id": 501496792, "lat": 7.6951, "lon": 6.1416, "tags": {"GNS:dsg_code": "PPL", "GNS:dsg_string": "populated place", "GNS:id": "-2022327", "alt_name": "Ohaketi", "fixme": "no population estimate available, defaulted to village", "is_in:country": "Nigeria", "name": "Ohakite", "place": "village", "source": "GNS"}}, {"type": "node", "id": 501497087, "lat": 7.7592, "lon": 6.113, "tags": {"GNS:dsg_code": "PPL", "GNS:dsg_string": "populated place", "GNS:id": "-2008386", "alt_name": "Beliko", "fixme": "no population estimate available, defaulted to village", "is_in:country": "Nigeria", "name": "Gbeleko", "place": "village", "source": "GNS"}}, {"type": "node", "id": 501497154, "lat": 7.8287285, "lon": 6.0731, "tags": {"GNS:dsg_code": "PPL", "GNS:dsg_string": "populated place", "GNS:id": "-2013970", "fixme": "no population estimate available, defaulted to village", "is_in:country": "Nigeria", "name": "Kabba", "name:ru": "\u041a\u0430\u0431\u0431\u0430", "place": "village", "source": "GNS", "wikidata": "Q6343978"}}]}